%time,field.header.seq,field.header.stamp,field.header.frame_id,field.status.status,field.status.service,field.latitude,field.longitude,field.altitude,field.position_covariance0,field.position_covariance1,field.position_covariance2,field.position_covariance3,field.position_covariance4,field.position_covariance5,field.position_covariance6,field.position_covariance7,field.position_covariance8,field.position_covariance_type
1642399580441443042,2340,1642399578101172884,,0,0,43.0758186926,141.339597242,42.2225875854,0.0,0.0,0.0,0.0,0.0,0.0,0.0,0.0,0.0,0
1642399580468824618,2341,1642399578300990607,,0,0,43.0758186757,141.339597265,42.2254257202,0.0,0.0,0.0,0.0,0.0,0.0,0.0,0.0,0.0,0
1642399580469515317,2342,1642399578501036494,,0,0,43.0758186927,141.339597272,42.2284469604,0.0,0.0,0.0,0.0,0.0,0.0,0.0,0.0,0.0,0
1642399580470530213,2343,1642399578700840650,,0,0,43.0758186755,141.33959726,42.2278747559,0.0,0.0,0.0,0.0,0.0,0.0,0.0,0.0,0.0,0
1642399580472283296,2344,1642399578904094202,,0,0,43.0758187551,141.339597246,42.2164802551,0.0,0.0,0.0,0.0,0.0,0.0,0.0,0.0,0.0,0
1642399580473692790,2345,1642399579101067690,,0,0,43.0758187495,141.33959726,42.220451355,0.0,0.0,0.0,0.0,0.0,0.0,0.0,0.0,0.0,0
1642399580474327392,2346,1642399579301244523,,0,0,43.0758187524,141.339597253,42.219455719,0.0,0.0,0.0,0.0,0.0,0.0,0.0,0.0,0.0,0
1642399580478568289,2347,1642399579503673903,,0,0,43.0758187438,141.339597275,42.2238082886,0.0,0.0,0.0,0.0,0.0,0.0,0.0,0.0,0.0,0
1642399580481274923,2348,1642399579701369098,,0,0,43.0758187249,141.339597237,42.2202529907,0.0,0.0,0.0,0.0,0.0,0.0,0.0,0.0,0.0,0
1642399580484822754,2349,1642399579900856768,,0,0,43.075818763,141.339597248,42.2194862366,0.0,0.0,0.0,0.0,0.0,0.0,0.0,0.0,0.0,0
1642399580485239081,2350,1642399580101685515,,0,0,43.0758187681,141.339597241,42.2264480591,0.0,0.0,0.0,0.0,0.0,0.0,0.0,0.0,0.0,0
1642399580485767729,2351,1642399580300870557,,0,0,43.0758187655,141.339597235,42.2215538025,0.0,0.0,0.0,0.0,0.0,0.0,0.0,0.0,0.0,0
1642399580716085574,2352,1642399580702113325,,0,0,43.0758187415,141.339597278,42.2274894714,0.0,0.0,0.0,0.0,0.0,0.0,0.0,0.0,0.0,0
1642399580921511416,2353,1642399580901098428,,0,0,43.0758188067,141.339597281,42.2294387817,0.0,0.0,0.0,0.0,0.0,0.0,0.0,0.0,0.0,0
1642399581320927596,2354,1642399581302283851,,0,0,43.0758187772,141.339597292,42.2348976135,0.0,0.0,0.0,0.0,0.0,0.0,0.0,0.0,0.0,0
1642399581639250422,2355,1642399581501000469,,0,0,43.0758188001,141.339597278,42.2298812866,0.0,0.0,0.0,0.0,0.0,0.0,0.0,0.0,0.0,0
1642399581878749241,2356,1642399581701051604,,0,0,43.0758187752,141.339597269,42.2358703613,0.0,0.0,0.0,0.0,0.0,0.0,0.0,0.0,0.0,0
1642399582102680298,2357,1642399581901212373,,0,0,43.0758187785,141.339597303,42.2378578186,0.0,0.0,0.0,0.0,0.0,0.0,0.0,0.0,0.0,0
1642399582269583591,2358,1642399582100963088,,0,0,43.0758187425,141.339597235,42.2243614197,0.0,0.0,0.0,0.0,0.0,0.0,0.0,0.0,0.0,0
1642399582397543048,2359,1642399582300816108,,0,0,43.075818749,141.339597245,42.2315406799,0.0,0.0,0.0,0.0,0.0,0.0,0.0,0.0,0.0,0
1642399582619094357,2360,1642399582501502933,,0,0,43.075818771,141.339597259,42.2245597839,0.0,0.0,0.0,0.0,0.0,0.0,0.0,0.0,0.0,0
1642399582821467256,2361,1642399582701551924,,0,0,43.0758187681,141.33959725,42.2304382324,0.0,0.0,0.0,0.0,0.0,0.0,0.0,0.0,0.0,0
1642399583127128926,2362,1642399583101538481,,0,0,43.0758187731,141.339597217,42.2129440308,0.0,0.0,0.0,0.0,0.0,0.0,0.0,0.0,0.0,0
1642399583374761599,2363,1642399583300952198,,0,0,43.0758188091,141.339597245,42.21900177,0.0,0.0,0.0,0.0,0.0,0.0,0.0,0.0,0.0,0
1642399583752684357,2364,1642399583701124069,,0,0,43.0758186144,141.339597436,42.2351646423,0.0,0.0,0.0,0.0,0.0,0.0,0.0,0.0,0.0,0
1642399583906421718,2365,1642399583905477095,,0,0,43.07581858,141.339597469,42.2366638184,0.0,0.0,0.0,0.0,0.0,0.0,0.0,0.0,0.0,0
1642399584124122471,2366,1642399584101385350,,0,0,43.075818521,141.339597511,42.2234954834,0.0,0.0,0.0,0.0,0.0,0.0,0.0,0.0,0.0,0
1642399584311113115,2367,1642399584301165409,,0,0,43.0758185055,141.339597547,42.235660553,0.0,0.0,0.0,0.0,0.0,0.0,0.0,0.0,0.0,0
1642399584505667557,2368,1642399584501465124,,0,0,43.0758185454,141.339597511,42.2323379517,0.0,0.0,0.0,0.0,0.0,0.0,0.0,0.0,0.0,0
1642399584711689121,2369,1642399584701599301,,0,0,43.0758184985,141.339597498,42.2326126099,0.0,0.0,0.0,0.0,0.0,0.0,0.0,0.0,0.0,0
1642399584949618604,2370,1642399584901386176,,0,0,43.0758185562,141.33959753,42.226184845,0.0,0.0,0.0,0.0,0.0,0.0,0.0,0.0,0.0,0
1642399585110677358,2371,1642399585103090648,,0,0,43.0758185508,141.339597547,42.2424049377,0.0,0.0,0.0,0.0,0.0,0.0,0.0,0.0,0.0,0
1642399585344352183,2372,1642399585303674400,,0,0,43.0758185443,141.339597531,42.230304718,0.0,0.0,0.0,0.0,0.0,0.0,0.0,0.0,0.0,0
1642399585505637181,2373,1642399585501061974,,0,0,43.0758185297,141.33959762,42.2399253845,0.0,0.0,0.0,0.0,0.0,0.0,0.0,0.0,0.0,0
1642399585747289601,2374,1642399585701575708,,0,0,43.07581853,141.339597664,42.2451057434,0.0,0.0,0.0,0.0,0.0,0.0,0.0,0.0,0.0,0
1642399585913050284,2375,1642399585901059922,,0,0,43.07581855,141.339597663,42.2190361023,0.0,0.0,0.0,0.0,0.0,0.0,0.0,0.0,0.0,0
1642399586155405180,2376,1642399586101823197,,0,0,43.0758185744,141.339597596,42.2276725769,0.0,0.0,0.0,0.0,0.0,0.0,0.0,0.0,0.0,0
1642399586366477382,2377,1642399586303160176,,0,0,43.0758186207,141.339597462,42.2466239929,0.0,0.0,0.0,0.0,0.0,0.0,0.0,0.0,0.0,0
1642399586535753960,2378,1642399586514212538,,0,0,43.0758186414,141.33959741,42.246635437,0.0,0.0,0.0,0.0,0.0,0.0,0.0,0.0,0.0,0
1642399586723703851,2379,1642399586706748164,,0,0,43.0758186219,141.339597444,42.2623291016,0.0,0.0,0.0,0.0,0.0,0.0,0.0,0.0,0.0,0
1642399586910659519,2380,1642399586901529586,,0,0,43.0758187511,141.339597482,42.2036323547,0.0,0.0,0.0,0.0,0.0,0.0,0.0,0.0,0.0,0
1642399587105757489,2381,1642399587101401582,,0,0,43.0758186773,141.339597492,42.2037773132,0.0,0.0,0.0,0.0,0.0,0.0,0.0,0.0,0.0,0
1642399587304834082,2382,1642399587301057095,,0,0,43.0758186838,141.339597552,42.2165222168,0.0,0.0,0.0,0.0,0.0,0.0,0.0,0.0,0.0,0
1642399587514204369,2383,1642399587505174373,,0,0,43.0758186957,141.339597557,42.1982650757,0.0,0.0,0.0,0.0,0.0,0.0,0.0,0.0,0.0,0
1642399587737465464,2384,1642399587704871327,,0,0,43.0758186201,141.339597491,42.2064323425,0.0,0.0,0.0,0.0,0.0,0.0,0.0,0.0,0.0,0
1642399588107084158,2385,1642399588101227107,,0,0,43.0758186799,141.339597487,42.1796760559,0.0,0.0,0.0,0.0,0.0,0.0,0.0,0.0,0.0,0
1642399588504998042,2386,1642399588504104172,,0,0,43.0758186796,141.339597579,42.1868476868,0.0,0.0,0.0,0.0,0.0,0.0,0.0,0.0,0.0,0
1642399588919070449,2387,1642399588907491518,,0,0,43.0758186098,141.339597479,42.1894226074,0.0,0.0,0.0,0.0,0.0,0.0,0.0,0.0,0.0,0
1642399589314214307,2388,1642399589301237017,,0,0,43.0758186097,141.339597477,42.1849479675,0.0,0.0,0.0,0.0,0.0,0.0,0.0,0.0,0.0,0
1642399589510339205,2389,1642399589508574666,,0,0,43.075818627,141.339597568,42.1763114929,0.0,0.0,0.0,0.0,0.0,0.0,0.0,0.0,0.0,0
1642399589753358207,2390,1642399589734972994,,0,0,43.0758186733,141.339597514,42.1714363098,0.0,0.0,0.0,0.0,0.0,0.0,0.0,0.0,0.0,0
1642399589914863080,2391,1642399589905869852,,0,0,43.0758186571,141.339597496,42.1895866394,0.0,0.0,0.0,0.0,0.0,0.0,0.0,0.0,0.0,0
1642399590166124642,2392,1642399590101531192,,0,0,43.0758186867,141.339597442,42.2046127319,0.0,0.0,0.0,0.0,0.0,0.0,0.0,0.0,0.0,0
1642399590534619542,2393,1642399590502856937,,0,0,43.0758187901,141.339597257,42.1972846985,0.0,0.0,0.0,0.0,0.0,0.0,0.0,0.0,0.0,0
1642399590995217630,2394,1642399590901737428,,0,0,43.0758189433,141.33959721,42.2250747681,0.0,0.0,0.0,0.0,0.0,0.0,0.0,0.0,0.0,0
1642399591189252320,2395,1642399591103783954,,0,0,43.0758189438,141.339597299,42.2417793274,0.0,0.0,0.0,0.0,0.0,0.0,0.0,0.0,0.0,0
1642399591493718067,2396,1642399591304298553,,0,0,43.0758188793,141.339597279,42.2353363037,0.0,0.0,0.0,0.0,0.0,0.0,0.0,0.0,0.0,0
1642399591846825816,2397,1642399591701854288,,0,0,43.0758188996,141.339597315,42.2445755005,0.0,0.0,0.0,0.0,0.0,0.0,0.0,0.0,0.0,0
1642399592116839797,2398,1642399592101739370,,0,0,43.0758189273,141.33959739,42.2534866333,0.0,0.0,0.0,0.0,0.0,0.0,0.0,0.0,0.0,0
1642399592301804170,2399,1642399592301278818,,0,0,43.0758189112,141.339597403,42.2574615479,0.0,0.0,0.0,0.0,0.0,0.0,0.0,0.0,0.0,0
1642399592507133595,2400,1642399592501287360,,0,0,43.0758189118,141.339597364,42.2547798157,0.0,0.0,0.0,0.0,0.0,0.0,0.0,0.0,0.0,0
1642399592902610770,2401,1642399592901966600,,0,0,43.0758188172,141.339597244,42.2102279663,0.0,0.0,0.0,0.0,0.0,0.0,0.0,0.0,0.0,0
1642399593314409221,2402,1642399593305581500,,0,0,43.0758188439,141.339597237,42.2100143433,0.0,0.0,0.0,0.0,0.0,0.0,0.0,0.0,0.0,0
1642399593704667691,2403,1642399593701481081,,0,0,43.0758188093,141.339597233,42.2126235962,0.0,0.0,0.0,0.0,0.0,0.0,0.0,0.0,0.0,0
1642399594329110465,2404,1642399594307856023,,0,0,43.0758188423,141.339597174,42.2020454407,0.0,0.0,0.0,0.0,0.0,0.0,0.0,0.0,0.0,0
1642399594502597828,2405,1642399594501624373,,0,0,43.0758188566,141.339597247,42.2105255127,0.0,0.0,0.0,0.0,0.0,0.0,0.0,0.0,0.0,0
1642399594717447657,2406,1642399594701702069,,0,0,43.0758188442,141.339597253,42.2039756775,0.0,0.0,0.0,0.0,0.0,0.0,0.0,0.0,0.0,0
1642399594918726395,2407,1642399594902008664,,0,0,43.0758188503,141.339597198,42.2031402588,0.0,0.0,0.0,0.0,0.0,0.0,0.0,0.0,0.0,0
1642399595311542985,2408,1642399595301429388,,0,0,43.075818878,141.339597258,42.2223014832,0.0,0.0,0.0,0.0,0.0,0.0,0.0,0.0,0.0,0
1642399595712191279,2409,1642399595701600619,,0,0,43.0758188651,141.339597242,42.214553833,0.0,0.0,0.0,0.0,0.0,0.0,0.0,0.0,0.0,0
1642399595960152918,2410,1642399595900921503,,0,0,43.0758188762,141.339597229,42.2148590088,0.0,0.0,0.0,0.0,0.0,0.0,0.0,0.0,0.0,0
1642399596194435912,2411,1642399596101079968,,0,0,43.0758188639,141.339597199,42.2049407959,0.0,0.0,0.0,0.0,0.0,0.0,0.0,0.0,0.0,0
1642399596911682654,2412,1642399596901495104,,0,0,43.0758188814,141.339597134,42.198299408,0.0,0.0,0.0,0.0,0.0,0.0,0.0,0.0,0.0,0
1642399597113559353,2413,1642399597107798752,,0,0,43.0758188502,141.339597117,42.1913566589,0.0,0.0,0.0,0.0,0.0,0.0,0.0,0.0,0.0,0
1642399597304381257,2414,1642399597301755616,,0,0,43.0758188607,141.33959714,42.1974601746,0.0,0.0,0.0,0.0,0.0,0.0,0.0,0.0,0.0,0
1642399597709840315,2415,1642399597708797354,,0,0,43.0758188257,141.339597107,42.1891899109,0.0,0.0,0.0,0.0,0.0,0.0,0.0,0.0,0.0,0
1642399598116768547,2416,1642399598112231772,,0,0,43.07581885,141.339597098,42.1948165894,0.0,0.0,0.0,0.0,0.0,0.0,0.0,0.0,0.0,0
1642399598308735941,2417,1642399598307336527,,0,0,43.0758188589,141.339597125,42.1828079224,0.0,0.0,0.0,0.0,0.0,0.0,0.0,0.0,0.0,0
1642399598504772293,2418,1642399598503554227,,0,0,43.0758188261,141.339597136,42.1950187683,0.0,0.0,0.0,0.0,0.0,0.0,0.0,0.0,0.0,0
1642399598940170791,2419,1642399598901701651,,0,0,43.0758188553,141.33959713,42.1966018677,0.0,0.0,0.0,0.0,0.0,0.0,0.0,0.0,0.0,0
1642399599319407010,2420,1642399599302704959,,0,0,43.07581884,141.33959735,42.2225189209,0.0,0.0,0.0,0.0,0.0,0.0,0.0,0.0,0.0,0
1642399599795218935,2421,1642399599701091363,,0,0,43.0758188164,141.339597361,42.2278709412,0.0,0.0,0.0,0.0,0.0,0.0,0.0,0.0,0.0,0
1642399600114542960,2422,1642399600101355491,,0,0,43.0758188611,141.339597308,42.222858429,0.0,0.0,0.0,0.0,0.0,0.0,0.0,0.0,0.0,0
1642399600308572818,2423,1642399600307861223,,0,0,43.0758188671,141.339597298,42.2192230225,0.0,0.0,0.0,0.0,0.0,0.0,0.0,0.0,0.0,0
1642399600504653427,2424,1642399600501479266,,0,0,43.0758188486,141.339597324,42.2233772278,0.0,0.0,0.0,0.0,0.0,0.0,0.0,0.0,0.0,0
1642399600903162489,2425,1642399600901920774,,0,0,43.0758188773,141.339597313,42.2169494629,0.0,0.0,0.0,0.0,0.0,0.0,0.0,0.0,0.0,0
1642399601350248080,2426,1642399601301510204,,0,0,43.0758188355,141.339597362,42.2187347412,0.0,0.0,0.0,0.0,0.0,0.0,0.0,0.0,0.0,0
1642399601714181917,2427,1642399601701560250,,0,0,43.0758188426,141.33959737,42.2178344727,0.0,0.0,0.0,0.0,0.0,0.0,0.0,0.0,0.0,0
1642399602116693153,2428,1642399602105510420,,0,0,43.075818859,141.339597375,42.2188034058,0.0,0.0,0.0,0.0,0.0,0.0,0.0,0.0,0.0,0
1642399602508200282,2429,1642399602501768214,,0,0,43.0758188444,141.339597342,42.2194404602,0.0,0.0,0.0,0.0,0.0,0.0,0.0,0.0,0.0,0
1642399602905751185,2430,1642399602902170393,,0,0,43.07581885,141.339597358,42.2266082764,0.0,0.0,0.0,0.0,0.0,0.0,0.0,0.0,0.0,0
1642399603308607482,2431,1642399603301724943,,0,0,43.0758188936,141.339597383,42.2264442444,0.0,0.0,0.0,0.0,0.0,0.0,0.0,0.0,0.0,0
1642399603743416339,2432,1642399603701626826,,0,0,43.0758187686,141.339597347,42.2306480408,0.0,0.0,0.0,0.0,0.0,0.0,0.0,0.0,0.0,0
1642399604131443606,2433,1642399604104527188,,0,0,43.0758188554,141.339597323,42.2132339478,0.0,0.0,0.0,0.0,0.0,0.0,0.0,0.0,0.0,0
1642399604510065703,2434,1642399604501972393,,0,0,43.0758188088,141.339597313,42.2186470032,0.0,0.0,0.0,0.0,0.0,0.0,0.0,0.0,0.0,0
1642399604715495353,2435,1642399604711613853,,0,0,43.0758188561,141.339597389,42.2311553955,0.0,0.0,0.0,0.0,0.0,0.0,0.0,0.0,0.0,0
1642399604925873465,2436,1642399604904868659,,0,0,43.0758187938,141.339597421,42.225528717,0.0,0.0,0.0,0.0,0.0,0.0,0.0,0.0,0.0,0
1642399605703084017,2437,1642399605701703995,,0,0,43.0758188412,141.339597299,42.2318496704,0.0,0.0,0.0,0.0,0.0,0.0,0.0,0.0,0.0,0
1642399605927656204,2438,1642399605901502519,,0,0,43.0758188623,141.339597309,42.2454948425,0.0,0.0,0.0,0.0,0.0,0.0,0.0,0.0,0.0,0
1642399606169208015,2439,1642399606109088619,,0,0,43.0758188597,141.339597283,42.2208404541,0.0,0.0,0.0,0.0,0.0,0.0,0.0,0.0,0.0,0
1642399606530901626,2440,1642399606501810518,,0,0,43.075818842,141.339597258,42.2170982361,0.0,0.0,0.0,0.0,0.0,0.0,0.0,0.0,0.0,0
1642399606771404620,2441,1642399606725547557,,0,0,43.0758188459,141.339597282,42.2201728821,0.0,0.0,0.0,0.0,0.0,0.0,0.0,0.0,0.0,0
1642399606902244858,2442,1642399606901545103,,0,0,43.0758188545,141.33959731,42.2165527344,0.0,0.0,0.0,0.0,0.0,0.0,0.0,0.0,0.0,0
1642399607106389977,2443,1642399607101933363,,0,0,43.0758188544,141.339597396,42.2126693726,0.0,0.0,0.0,0.0,0.0,0.0,0.0,0.0,0.0,0
1642399607354085243,2444,1642399607302134133,,0,0,43.0758188702,141.339597388,42.2178726196,0.0,0.0,0.0,0.0,0.0,0.0,0.0,0.0,0.0,0
1642399607710022156,2445,1642399607702033392,,0,0,43.075818934,141.339597361,42.2252731323,0.0,0.0,0.0,0.0,0.0,0.0,0.0,0.0,0.0,0
1642399608148823619,2446,1642399608106223150,,0,0,43.0758190167,141.339597327,42.239074707,0.0,0.0,0.0,0.0,0.0,0.0,0.0,0.0,0.0,0
1642399608308440047,2447,1642399608307562529,,0,0,43.0758190243,141.339597411,42.2327270508,0.0,0.0,0.0,0.0,0.0,0.0,0.0,0.0,0.0,0
1642399608505877637,2448,1642399608504244236,,0,0,43.0758189457,141.339597363,42.2269668579,0.0,0.0,0.0,0.0,0.0,0.0,0.0,0.0,0.0,0
1642399608903128247,2449,1642399608901809571,,0,0,43.0758189324,141.33959735,42.2266044617,0.0,0.0,0.0,0.0,0.0,0.0,0.0,0.0,0.0,0
1642399609301992674,2450,1642399609301427642,,0,0,43.0758189089,141.339597381,42.2171134949,0.0,0.0,0.0,0.0,0.0,0.0,0.0,0.0,0.0,0
1642399609519113322,2451,1642399609502171172,,0,0,43.0758189642,141.339597364,42.2369155884,0.0,0.0,0.0,0.0,0.0,0.0,0.0,0.0,0.0,0
1642399610392752826,2452,1642399610102232224,,0,0,43.0758189915,141.339597299,42.2434959412,0.0,0.0,0.0,0.0,0.0,0.0,0.0,0.0,0.0,0
1642399610769894036,2453,1642399610501451856,,0,0,43.0758190013,141.339597303,42.2422599792,0.0,0.0,0.0,0.0,0.0,0.0,0.0,0.0,0.0,0
1642399610807490524,2454,1642399610702261659,,0,0,43.0758189948,141.339597326,42.2364692688,0.0,0.0,0.0,0.0,0.0,0.0,0.0,0.0,0.0,0
1642399610948918477,2455,1642399610914431702,,0,0,43.0758190004,141.339597361,42.231716156,0.0,0.0,0.0,0.0,0.0,0.0,0.0,0.0,0.0,0
1642399611774767064,2456,1642399611702065552,,0,0,43.0758188855,141.339597341,42.2177085876,0.0,0.0,0.0,0.0,0.0,0.0,0.0,0.0,0.0,0
1642399612113892868,2457,1642399612101712711,,0,0,43.0758189384,141.339597309,42.2088508606,0.0,0.0,0.0,0.0,0.0,0.0,0.0,0.0,0.0,0
1642399612525478005,2458,1642399612501600066,,0,0,43.0758189598,141.33959726,42.2157440186,0.0,0.0,0.0,0.0,0.0,0.0,0.0,0.0,0.0,0
1642399613016378228,2459,1642399612901623487,,0,0,43.0758189391,141.339597311,42.2102432251,0.0,0.0,0.0,0.0,0.0,0.0,0.0,0.0,0.0,0
1642399613342224114,2460,1642399613301576764,,0,0,43.0758188787,141.339597305,42.2075386047,0.0,0.0,0.0,0.0,0.0,0.0,0.0,0.0,0.0,0
1642399614112855332,2461,1642399614107243309,,0,0,43.0758188825,141.339597287,42.2049331665,0.0,0.0,0.0,0.0,0.0,0.0,0.0,0.0,0.0,0
1642399614502477504,2462,1642399614501709204,,0,0,43.0758188677,141.339597299,42.2035255432,0.0,0.0,0.0,0.0,0.0,0.0,0.0,0.0,0.0,0
1642399614913051968,2463,1642399614901721521,,0,0,43.0758187624,141.33959732,42.2110519409,0.0,0.0,0.0,0.0,0.0,0.0,0.0,0.0,0.0,0
1642399615302402904,2464,1642399615301525706,,0,0,43.0758188295,141.339597339,42.2066955566,0.0,0.0,0.0,0.0,0.0,0.0,0.0,0.0,0.0,0
1642399615704051086,2465,1642399615702337140,,0,0,43.0758188286,141.339597334,42.2081184387,0.0,0.0,0.0,0.0,0.0,0.0,0.0,0.0,0.0,0
1642399616142234043,2466,1642399616103417921,,0,0,43.0758187647,141.339597352,42.1965713501,0.0,0.0,0.0,0.0,0.0,0.0,0.0,0.0,0.0,0
1642399616515539706,2467,1642399616501937959,,0,0,43.0758187773,141.339597317,42.2024917603,0.0,0.0,0.0,0.0,0.0,0.0,0.0,0.0,0.0,0
1642399616903547197,2468,1642399616902251977,,0,0,43.0758187979,141.339597299,42.2082328796,0.0,0.0,0.0,0.0,0.0,0.0,0.0,0.0,0.0,0
1642399617323462286,2469,1642399617304480648,,0,0,43.0758188652,141.339597306,42.2171554565,0.0,0.0,0.0,0.0,0.0,0.0,0.0,0.0,0.0,0
1642399617517367310,2470,1642399617507985469,,0,0,43.0758188417,141.33959733,42.2109489441,0.0,0.0,0.0,0.0,0.0,0.0,0.0,0.0,0.0,0
1642399617738095598,2471,1642399617701910973,,0,0,43.0758188215,141.339597349,42.2125701904,0.0,0.0,0.0,0.0,0.0,0.0,0.0,0.0,0.0,0
1642399618115158023,2472,1642399618101402162,,0,0,43.0758188695,141.339597318,42.2072906494,0.0,0.0,0.0,0.0,0.0,0.0,0.0,0.0,0.0,0
1642399618510284824,2473,1642399618501709779,,0,0,43.0758188057,141.339597344,42.2069587708,0.0,0.0,0.0,0.0,0.0,0.0,0.0,0.0,0.0,0
1642399618923720485,2474,1642399618902224728,,0,0,43.0758188655,141.339597331,42.2053871155,0.0,0.0,0.0,0.0,0.0,0.0,0.0,0.0,0.0,0
1642399619310447220,2475,1642399619301470057,,0,0,43.0758188145,141.339597348,42.2109642029,0.0,0.0,0.0,0.0,0.0,0.0,0.0,0.0,0.0,0
1642399619508086510,2476,1642399619504659417,,0,0,43.0758188612,141.339597336,42.2115020752,0.0,0.0,0.0,0.0,0.0,0.0,0.0,0.0,0.0,0
1642399619744118235,2477,1642399619701681065,,0,0,43.075818835,141.339597297,42.2199249268,0.0,0.0,0.0,0.0,0.0,0.0,0.0,0.0,0.0,0
1642399620104883639,2478,1642399620103966313,,0,0,43.0758188182,141.339597337,42.209941864,0.0,0.0,0.0,0.0,0.0,0.0,0.0,0.0,0.0,0
1642399620505011830,2479,1642399620503071224,,0,0,43.075818817,141.339597309,42.2118606567,0.0,0.0,0.0,0.0,0.0,0.0,0.0,0.0,0.0,0
1642399620725770007,2480,1642399620702253898,,0,0,43.0758187904,141.339597331,42.2160682678,0.0,0.0,0.0,0.0,0.0,0.0,0.0,0.0,0.0,0
1642399620937929266,2481,1642399620901830242,,0,0,43.0758187992,141.339597324,42.2099189758,0.0,0.0,0.0,0.0,0.0,0.0,0.0,0.0,0.0,0
1642399621312526628,2482,1642399621306304836,,0,0,43.0758187833,141.339597325,42.2149963379,0.0,0.0,0.0,0.0,0.0,0.0,0.0,0.0,0.0,0
1642399621907807638,2483,1642399621903192143,,0,0,43.0758188167,141.339597315,42.2100982666,0.0,0.0,0.0,0.0,0.0,0.0,0.0,0.0,0.0,0
1642399622116355609,2484,1642399622106101146,,0,0,43.0758188211,141.339597323,42.2107543945,0.0,0.0,0.0,0.0,0.0,0.0,0.0,0.0,0.0,0
1642399622524289553,2485,1642399622502468894,,0,0,43.0758188238,141.339597305,42.2144699097,0.0,0.0,0.0,0.0,0.0,0.0,0.0,0.0,0.0,0
1642399622904466138,2486,1642399622902145078,,0,0,43.0758188405,141.339597304,42.206615448,0.0,0.0,0.0,0.0,0.0,0.0,0.0,0.0,0.0,0
1642399623318420431,2487,1642399623302153587,,0,0,43.0758188398,141.339597306,42.226940155,0.0,0.0,0.0,0.0,0.0,0.0,0.0,0.0,0.0,0
1642399623702230321,2488,1642399623701516294,,0,0,43.0758188288,141.339597331,42.2266044617,0.0,0.0,0.0,0.0,0.0,0.0,0.0,0.0,0.0,0
1642399624104250765,2489,1642399624102173933,,0,0,43.0758188914,141.339597292,42.2153244019,0.0,0.0,0.0,0.0,0.0,0.0,0.0,0.0,0.0,0
1642399624301831654,2490,1642399624301465536,,0,0,43.0758188645,141.339597309,42.2226867676,0.0,0.0,0.0,0.0,0.0,0.0,0.0,0.0,0.0,0
1642399624534283036,2491,1642399624504660784,,0,0,43.0758189005,141.339597278,42.2106933594,0.0,0.0,0.0,0.0,0.0,0.0,0.0,0.0,0.0,0
1642399624906606731,2492,1642399624902592045,,0,0,43.0758188947,141.339597329,42.2155189514,0.0,0.0,0.0,0.0,0.0,0.0,0.0,0.0,0.0,0
1642399625314489346,2493,1642399625302771308,,0,0,43.0758188598,141.339597337,42.2163925171,0.0,0.0,0.0,0.0,0.0,0.0,0.0,0.0,0.0,0
1642399625509093453,2494,1642399625507942715,,0,0,43.0758188862,141.33959733,42.212928772,0.0,0.0,0.0,0.0,0.0,0.0,0.0,0.0,0.0,0
1642399625714158490,2495,1642399625701801306,,0,0,43.0758188568,141.339597338,42.2165603638,0.0,0.0,0.0,0.0,0.0,0.0,0.0,0.0,0.0,0
1642399626504831331,2496,1642399626501798516,,0,0,43.0758188597,141.33959732,42.2100372314,0.0,0.0,0.0,0.0,0.0,0.0,0.0,0.0,0.0,0
1642399627125158841,2497,1642399626902068436,,0,0,43.0758188673,141.33959729,42.2143173218,0.0,0.0,0.0,0.0,0.0,0.0,0.0,0.0,0.0,0
1642399627423052742,2498,1642399627304984574,,0,0,43.0758188808,141.339597281,42.2143783569,0.0,0.0,0.0,0.0,0.0,0.0,0.0,0.0,0.0,0
1642399627800827754,2499,1642399627702169296,,0,0,43.0758188495,141.3395973,42.2145996094,0.0,0.0,0.0,0.0,0.0,0.0,0.0,0.0,0.0,0
1642399628107425790,2500,1642399628101803495,,0,0,43.0758188434,141.339597269,42.2140274048,0.0,0.0,0.0,0.0,0.0,0.0,0.0,0.0,0.0,0
1642399628516033440,2501,1642399628501666241,,0,0,43.0758188294,141.33959729,42.204158783,0.0,0.0,0.0,0.0,0.0,0.0,0.0,0.0,0.0,0
1642399628903209334,2502,1642399628902376809,,0,0,43.0758188555,141.339597283,42.2102813721,0.0,0.0,0.0,0.0,0.0,0.0,0.0,0.0,0.0,0
1642399629424733200,2503,1642399629302918830,,0,0,43.0758188436,141.339597325,42.218296051,0.0,0.0,0.0,0.0,0.0,0.0,0.0,0.0,0.0,0
1642399629812451502,2504,1642399629702336194,,0,0,43.0758188432,141.339597339,42.2195777893,0.0,0.0,0.0,0.0,0.0,0.0,0.0,0.0,0.0,0
1642399630212550284,2505,1642399630102528322,,0,0,43.0758188475,141.339597334,42.2172164917,0.0,0.0,0.0,0.0,0.0,0.0,0.0,0.0,0.0,0
1642399630518328147,2506,1642399630502317403,,0,0,43.0758188377,141.33959733,42.214679718,0.0,0.0,0.0,0.0,0.0,0.0,0.0,0.0,0.0,0
1642399630903643084,2507,1642399630902442522,,0,0,43.0758188371,141.339597348,42.2210159302,0.0,0.0,0.0,0.0,0.0,0.0,0.0,0.0,0.0,0
1642399631312948089,2508,1642399631303658793,,0,0,43.0758188255,141.339597301,42.2211112976,0.0,0.0,0.0,0.0,0.0,0.0,0.0,0.0,0.0,0
1642399631703378306,2509,1642399631702403571,,0,0,43.0758188384,141.339597302,42.2302131653,0.0,0.0,0.0,0.0,0.0,0.0,0.0,0.0,0.0,0
1642399632112746768,2510,1642399632107062712,,0,0,43.0758188626,141.339597313,42.2236862183,0.0,0.0,0.0,0.0,0.0,0.0,0.0,0.0,0.0,0
1642399632535974101,2511,1642399632504886227,,0,0,43.0758188822,141.33959732,42.2165794373,0.0,0.0,0.0,0.0,0.0,0.0,0.0,0.0,0.0,0
1642399632905655099,2512,1642399632904617003,,0,0,43.0758188457,141.339597324,42.2280921936,0.0,0.0,0.0,0.0,0.0,0.0,0.0,0.0,0.0,0
1642399633316027641,2513,1642399633308125182,,0,0,43.0758188348,141.339597317,42.2094650269,0.0,0.0,0.0,0.0,0.0,0.0,0.0,0.0,0.0,0
1642399633508556163,2514,1642399633507604245,,0,0,43.0758188414,141.339597321,42.2051315308,0.0,0.0,0.0,0.0,0.0,0.0,0.0,0.0,0.0,0
1642399633733832362,2515,1642399633702252256,,0,0,43.0758188394,141.339597322,42.212978363,0.0,0.0,0.0,0.0,0.0,0.0,0.0,0.0,0.0,0
1642399633902912169,2516,1642399633902164573,,0,0,43.075818811,141.339597305,42.2116508484,0.0,0.0,0.0,0.0,0.0,0.0,0.0,0.0,0.0,0
1642399634103228588,2517,1642399634102444000,,0,0,43.0758188258,141.339597278,42.2062492371,0.0,0.0,0.0,0.0,0.0,0.0,0.0,0.0,0.0,0
1642399634311035043,2518,1642399634301682514,,0,0,43.0758188238,141.339597292,42.213684082,0.0,0.0,0.0,0.0,0.0,0.0,0.0,0.0,0.0,0
1642399634514176754,2519,1642399634502677824,,0,0,43.075818828,141.339597304,42.2101669312,0.0,0.0,0.0,0.0,0.0,0.0,0.0,0.0,0.0,0
1642399634718286993,2520,1642399634704605308,,0,0,43.0758188399,141.339597284,42.2076072693,0.0,0.0,0.0,0.0,0.0,0.0,0.0,0.0,0.0,0
1642399634911632232,2521,1642399634902949537,,0,0,43.0758188132,141.33959731,42.214050293,0.0,0.0,0.0,0.0,0.0,0.0,0.0,0.0,0.0,0
1642399635102675995,2522,1642399635101883631,,0,0,43.0758188716,141.339597314,42.2177658081,0.0,0.0,0.0,0.0,0.0,0.0,0.0,0.0,0.0,0
1642399635303651081,2523,1642399635302567352,,0,0,43.075818895,141.339597318,42.208366394,0.0,0.0,0.0,0.0,0.0,0.0,0.0,0.0,0.0,0
1642399635514062153,2524,1642399635505909514,,0,0,43.0758188581,141.339597308,42.2058639526,0.0,0.0,0.0,0.0,0.0,0.0,0.0,0.0,0.0,0
1642399635730026559,2525,1642399635704220014,,0,0,43.0758188692,141.339597313,42.2125930786,0.0,0.0,0.0,0.0,0.0,0.0,0.0,0.0,0.0,0
1642399635922857710,2526,1642399635904129291,,0,0,43.0758188749,141.339597312,42.2184677124,0.0,0.0,0.0,0.0,0.0,0.0,0.0,0.0,0.0,0
1642399636105444510,2527,1642399636104588753,,0,0,43.0758188361,141.339597303,42.2165031433,0.0,0.0,0.0,0.0,0.0,0.0,0.0,0.0,0.0,0
1642399636336500862,2528,1642399636301749571,,0,0,43.075818847,141.339597316,42.2221565247,0.0,0.0,0.0,0.0,0.0,0.0,0.0,0.0,0.0,0
1642399636503237881,2529,1642399636502627247,,0,0,43.0758188472,141.33959731,42.2208747864,0.0,0.0,0.0,0.0,0.0,0.0,0.0,0.0,0.0,0
1642399636703391801,2530,1642399636702733135,,0,0,43.0758188694,141.339597314,42.2304649353,0.0,0.0,0.0,0.0,0.0,0.0,0.0,0.0,0.0,0
1642399636916534372,2531,1642399636903783998,,0,0,43.0758188605,141.339597326,42.2316627502,0.0,0.0,0.0,0.0,0.0,0.0,0.0,0.0,0.0,0
1642399637102328454,2532,1642399637101620891,,0,0,43.0758188656,141.339597289,42.2237052917,0.0,0.0,0.0,0.0,0.0,0.0,0.0,0.0,0.0,0
1642399637307631766,2533,1642399637305898171,,0,0,43.075818878,141.33959729,42.220287323,0.0,0.0,0.0,0.0,0.0,0.0,0.0,0.0,0.0,0
1642399637509246702,2534,1642399637502367683,,0,0,43.0758188887,141.339597283,42.2143630981,0.0,0.0,0.0,0.0,0.0,0.0,0.0,0.0,0.0,0
1642399637704134141,2535,1642399637702760967,,0,0,43.0758188674,141.339597308,42.2238349915,0.0,0.0,0.0,0.0,0.0,0.0,0.0,0.0,0.0,0
1642399637959799451,2536,1642399637902656516,,0,0,43.0758188818,141.339597294,42.2277336121,0.0,0.0,0.0,0.0,0.0,0.0,0.0,0.0,0.0,0
1642399638141787810,2537,1642399638102009560,,0,0,43.0758188796,141.339597314,42.2323379517,0.0,0.0,0.0,0.0,0.0,0.0,0.0,0.0,0.0,0
1642399638339116214,2538,1642399638301849684,,0,0,43.0758188593,141.339597342,42.2266120911,0.0,0.0,0.0,0.0,0.0,0.0,0.0,0.0,0.0,0
1642399638506978242,2539,1642399638505186246,,0,0,43.0758188856,141.33959733,42.2247619629,0.0,0.0,0.0,0.0,0.0,0.0,0.0,0.0,0.0,0
1642399638731733921,2540,1642399638701992979,,0,0,43.0758188574,141.339597346,42.2272491455,0.0,0.0,0.0,0.0,0.0,0.0,0.0,0.0,0.0,0
1642399638904497721,2541,1642399638902223669,,0,0,43.0758189025,141.339597324,42.2300415039,0.0,0.0,0.0,0.0,0.0,0.0,0.0,0.0,0.0,0
1642399639114625844,2542,1642399639105822731,,0,0,43.0758189272,141.339597286,42.2169036865,0.0,0.0,0.0,0.0,0.0,0.0,0.0,0.0,0.0,0
1642399639313056506,2543,1642399639301762347,,0,0,43.0758188987,141.33959728,42.2202568054,0.0,0.0,0.0,0.0,0.0,0.0,0.0,0.0,0.0,0
1642399639509192796,2544,1642399639502934235,,0,0,43.0758188645,141.339597292,42.2228660583,0.0,0.0,0.0,0.0,0.0,0.0,0.0,0.0,0.0,0
1642399639736521283,2545,1642399639704734070,,0,0,43.0758188903,141.339597279,42.227016449,0.0,0.0,0.0,0.0,0.0,0.0,0.0,0.0,0.0,0
1642399639916867792,2546,1642399639902549906,,0,0,43.0758188914,141.339597279,42.2205734253,0.0,0.0,0.0,0.0,0.0,0.0,0.0,0.0,0.0,0
1642399640103000568,2547,1642399640102020616,,0,0,43.0758188917,141.339597297,42.215473175,0.0,0.0,0.0,0.0,0.0,0.0,0.0,0.0,0.0,0
1642399640513963454,2548,1642399640513135218,,0,0,43.0758189035,141.339597287,42.2189941406,0.0,0.0,0.0,0.0,0.0,0.0,0.0,0.0,0.0,0
1642399640703023763,2549,1642399640702053700,,0,0,43.0758188571,141.339597292,42.2208595276,0.0,0.0,0.0,0.0,0.0,0.0,0.0,0.0,0.0,0
1642399640914701703,2550,1642399640902292838,,0,0,43.0758188683,141.339597272,42.2170295715,0.0,0.0,0.0,0.0,0.0,0.0,0.0,0.0,0.0,0
1642399641104991214,2551,1642399641102461159,,0,0,43.0758188812,141.339597283,42.2216377258,0.0,0.0,0.0,0.0,0.0,0.0,0.0,0.0,0.0,0
1642399641302977517,2552,1642399641302587431,,0,0,43.0758188765,141.339597283,42.2177581787,0.0,0.0,0.0,0.0,0.0,0.0,0.0,0.0,0.0,0
1642399641503732664,2553,1642399641502644679,,0,0,43.0758188919,141.339597264,42.2148475647,0.0,0.0,0.0,0.0,0.0,0.0,0.0,0.0,0.0,0
1642399641715568014,2554,1642399641702308672,,0,0,43.0758188741,141.339597294,42.2278022766,0.0,0.0,0.0,0.0,0.0,0.0,0.0,0.0,0.0,0
1642399641968677380,2555,1642399641909644560,,0,0,43.075818857,141.339597262,42.2221412659,0.0,0.0,0.0,0.0,0.0,0.0,0.0,0.0,0.0,0
1642399642145106324,2556,1642399642101826485,,0,0,43.0758188721,141.339597279,42.2259864807,0.0,0.0,0.0,0.0,0.0,0.0,0.0,0.0,0.0,0
1642399642325304384,2557,1642399642302704001,,0,0,43.0758188751,141.339597281,42.2171669006,0.0,0.0,0.0,0.0,0.0,0.0,0.0,0.0,0.0,0
1642399642505464138,2558,1642399642502273625,,0,0,43.075818867,141.339597288,42.2215232849,0.0,0.0,0.0,0.0,0.0,0.0,0.0,0.0,0.0,0
1642399642724958039,2559,1642399642710393621,,0,0,43.0758188494,141.339597295,42.226360321,0.0,0.0,0.0,0.0,0.0,0.0,0.0,0.0,0.0,0
1642399643002618634,2560,1642399642902196148,,0,0,43.0758188287,141.339597319,42.236541748,0.0,0.0,0.0,0.0,0.0,0.0,0.0,0.0,0.0,0
1642399643128970322,2561,1642399643102154546,,0,0,43.0758188369,141.339597298,42.2305526733,0.0,0.0,0.0,0.0,0.0,0.0,0.0,0.0,0.0,0
1642399643307096349,2562,1642399643302574551,,0,0,43.0758188025,141.339597313,42.2321853638,0.0,0.0,0.0,0.0,0.0,0.0,0.0,0.0,0.0,0
1642399643770246381,2563,1642399643702994682,,0,0,43.075818827,141.339597307,42.2273216248,0.0,0.0,0.0,0.0,0.0,0.0,0.0,0.0,0.0,0
1642399644134077241,2564,1642399644119260915,,0,0,43.0758188403,141.339597285,42.2296028137,0.0,0.0,0.0,0.0,0.0,0.0,0.0,0.0,0.0,0
1642399644540375576,2565,1642399644505728670,,0,0,43.0758188776,141.339597302,42.2122650146,0.0,0.0,0.0,0.0,0.0,0.0,0.0,0.0,0.0,0
1642399644725490703,2566,1642399644710926765,,0,0,43.0758188791,141.339597327,42.2199058533,0.0,0.0,0.0,0.0,0.0,0.0,0.0,0.0,0.0,0
1642399644914510563,2567,1642399644902904175,,0,0,43.0758188897,141.339597324,42.2132720947,0.0,0.0,0.0,0.0,0.0,0.0,0.0,0.0,0.0,0
1642399645108121470,2568,1642399645107474420,,0,0,43.0758188984,141.339597294,42.2164154053,0.0,0.0,0.0,0.0,0.0,0.0,0.0,0.0,0.0,0
1642399645303610679,2569,1642399645302665256,,0,0,43.0758188608,141.339597295,42.2201690674,0.0,0.0,0.0,0.0,0.0,0.0,0.0,0.0,0.0,0
1642399645521081924,2570,1642399645502708519,,0,0,43.0758188977,141.33959728,42.2118721008,0.0,0.0,0.0,0.0,0.0,0.0,0.0,0.0,0.0,0
1642399645707279052,2571,1642399645705576050,,0,0,43.0758188969,141.339597297,42.2132225037,0.0,0.0,0.0,0.0,0.0,0.0,0.0,0.0,0.0,0
1642399645993810601,2572,1642399645902480224,,0,0,43.0758188441,141.339597323,42.2133636475,0.0,0.0,0.0,0.0,0.0,0.0,0.0,0.0,0.0,0
1642399646166304861,2573,1642399646102044536,,0,0,43.0758188523,141.339597329,42.2155914307,0.0,0.0,0.0,0.0,0.0,0.0,0.0,0.0,0.0,0
1642399646323065820,2574,1642399646305042437,,0,0,43.0758188365,141.339597324,42.2177886963,0.0,0.0,0.0,0.0,0.0,0.0,0.0,0.0,0.0,0
1642399646513108736,2575,1642399646503848081,,0,0,43.0758188466,141.339597306,42.2123222351,0.0,0.0,0.0,0.0,0.0,0.0,0.0,0.0,0.0,0
1642399646709933741,2576,1642399646705475624,,0,0,43.0758188385,141.339597326,42.2139434814,0.0,0.0,0.0,0.0,0.0,0.0,0.0,0.0,0.0,0
1642399646906407509,2577,1642399646902763453,,0,0,43.0758188343,141.33959732,42.2213058472,0.0,0.0,0.0,0.0,0.0,0.0,0.0,0.0,0.0,0
1642399647106144271,2578,1642399647101966511,,0,0,43.0758188595,141.339597298,42.2145652771,0.0,0.0,0.0,0.0,0.0,0.0,0.0,0.0,0.0,0
1642399647304755608,2579,1642399647302820186,,0,0,43.0758188625,141.339597316,42.2104873657,0.0,0.0,0.0,0.0,0.0,0.0,0.0,0.0,0.0,0
1642399647512877301,2580,1642399647503064700,,0,0,43.0758188464,141.339597319,42.2105827332,0.0,0.0,0.0,0.0,0.0,0.0,0.0,0.0,0.0,0
1642399647703321663,2581,1642399647702691445,,0,0,43.0758188643,141.339597318,42.2111625671,0.0,0.0,0.0,0.0,0.0,0.0,0.0,0.0,0.0,0
1642399647906397645,2582,1642399647902731156,,0,0,43.075818861,141.339597308,42.2181930542,0.0,0.0,0.0,0.0,0.0,0.0,0.0,0.0,0.0,0
1642399648114249445,2583,1642399648103000887,,0,0,43.0758188625,141.339597266,42.2171363831,0.0,0.0,0.0,0.0,0.0,0.0,0.0,0.0,0.0,0
1642399648318091423,2584,1642399648302479053,,0,0,43.0758188686,141.339597287,42.2195930481,0.0,0.0,0.0,0.0,0.0,0.0,0.0,0.0,0.0,0
1642399648502810800,2585,1642399648502260648,,0,0,43.0758188624,141.339597254,42.2177963257,0.0,0.0,0.0,0.0,0.0,0.0,0.0,0.0,0.0,0
1642399648728283418,2586,1642399648706046081,,0,0,43.0758188602,141.339597274,42.2226486206,0.0,0.0,0.0,0.0,0.0,0.0,0.0,0.0,0.0,0
1642399648938705018,2587,1642399648902871150,,0,0,43.0758188584,141.339597283,42.218624115,0.0,0.0,0.0,0.0,0.0,0.0,0.0,0.0,0.0,0
1642399649103782842,2588,1642399649103112752,,0,0,43.0758188611,141.339597299,42.2190666199,0.0,0.0,0.0,0.0,0.0,0.0,0.0,0.0,0.0,0
1642399649317428397,2589,1642399649302058782,,0,0,43.0758188534,141.339597315,42.2231941223,0.0,0.0,0.0,0.0,0.0,0.0,0.0,0.0,0.0,0
1642399649502633829,2590,1642399649502027772,,0,0,43.0758188377,141.339597314,42.2217330933,0.0,0.0,0.0,0.0,0.0,0.0,0.0,0.0,0.0,0
1642399649703902071,2591,1642399649702371392,,0,0,43.075818833,141.339597332,42.2215080261,0.0,0.0,0.0,0.0,0.0,0.0,0.0,0.0,0.0,0
1642399649925164352,2592,1642399649903674418,,0,0,43.0758188209,141.339597297,42.206111908,0.0,0.0,0.0,0.0,0.0,0.0,0.0,0.0,0.0,0
1642399650121883147,2593,1642399650102453918,,0,0,43.075818803,141.339597287,42.2170524597,0.0,0.0,0.0,0.0,0.0,0.0,0.0,0.0,0.0,0
1642399650304106070,2594,1642399650302491901,,0,0,43.0758188132,141.339597284,42.2117271423,0.0,0.0,0.0,0.0,0.0,0.0,0.0,0.0,0.0,0
1642399650504786879,2595,1642399650502887969,,0,0,43.0758188279,141.339597283,42.20911026,0.0,0.0,0.0,0.0,0.0,0.0,0.0,0.0,0.0,0
1642399650708164177,2596,1642399650702976737,,0,0,43.0758188047,141.339597303,42.2129249573,0.0,0.0,0.0,0.0,0.0,0.0,0.0,0.0,0.0,0
1642399650927770656,2597,1642399650910888954,,0,0,43.0758187793,141.339597291,42.2140617371,0.0,0.0,0.0,0.0,0.0,0.0,0.0,0.0,0.0,0
1642399651134166850,2598,1642399651102412885,,0,0,43.0758188053,141.339597298,42.2145385742,0.0,0.0,0.0,0.0,0.0,0.0,0.0,0.0,0.0,0
1642399651364133809,2599,1642399651302726200,,0,0,43.0758188237,141.339597293,42.2099494934,0.0,0.0,0.0,0.0,0.0,0.0,0.0,0.0,0.0,0
1642399651518370825,2600,1642399651515512445,,0,0,43.0758188232,141.339597283,42.2109985352,0.0,0.0,0.0,0.0,0.0,0.0,0.0,0.0,0.0,0
1642399651784783438,2601,1642399651702845015,,0,0,43.0758188077,141.339597298,42.216293335,0.0,0.0,0.0,0.0,0.0,0.0,0.0,0.0,0.0,0
1642399651915957505,2602,1642399651902132618,,0,0,43.0758188656,141.339597353,42.2236175537,0.0,0.0,0.0,0.0,0.0,0.0,0.0,0.0,0.0,0
1642399652303225496,2603,1642399652302533869,,0,0,43.0758188627,141.33959734,42.2234535217,0.0,0.0,0.0,0.0,0.0,0.0,0.0,0.0,0.0,0
1642399652528406045,2604,1642399652512320163,,0,0,43.0758188432,141.339597321,42.2262077332,0.0,0.0,0.0,0.0,0.0,0.0,0.0,0.0,0.0,0
1642399652925017701,2605,1642399652904680809,,0,0,43.0758188378,141.339597336,42.2281150818,0.0,0.0,0.0,0.0,0.0,0.0,0.0,0.0,0.0,0
1642399653105047470,2606,1642399653104268641,,0,0,43.0758188486,141.339597354,42.2242469788,0.0,0.0,0.0,0.0,0.0,0.0,0.0,0.0,0.0,0
1642399653315646960,2607,1642399653314883653,,0,0,43.0758188571,141.339597311,42.2142829895,0.0,0.0,0.0,0.0,0.0,0.0,0.0,0.0,0.0,0
1642399653503613012,2608,1642399653503142669,,0,0,43.0758188513,141.339597306,42.2120285034,0.0,0.0,0.0,0.0,0.0,0.0,0.0,0.0,0.0,0
1642399653702869511,2609,1642399653702318462,,0,0,43.0758188452,141.339597327,42.2144317627,0.0,0.0,0.0,0.0,0.0,0.0,0.0,0.0,0.0,0
1642399653903599281,2610,1642399653902712195,,0,0,43.0758188502,141.339597305,42.2172088623,0.0,0.0,0.0,0.0,0.0,0.0,0.0,0.0,0.0,0
1642399654147113970,2611,1642399654102929541,,0,0,43.0758188295,141.33959729,42.2134780884,0.0,0.0,0.0,0.0,0.0,0.0,0.0,0.0,0.0,0
1642399654311558025,2612,1642399654302851714,,0,0,43.075818825,141.339597301,42.2159042358,0.0,0.0,0.0,0.0,0.0,0.0,0.0,0.0,0.0,0
1642399654515976972,2613,1642399654510663641,,0,0,43.0758188181,141.339597294,42.2190132141,0.0,0.0,0.0,0.0,0.0,0.0,0.0,0.0,0.0,0
1642399654770346901,2614,1642399654705927406,,0,0,43.0758188252,141.339597298,42.2226982117,0.0,0.0,0.0,0.0,0.0,0.0,0.0,0.0,0.0,0
1642399655024054581,2615,1642399654905716841,,0,0,43.0758188555,141.339597316,42.2185897827,0.0,0.0,0.0,0.0,0.0,0.0,0.0,0.0,0.0,0
1642399655325621979,2616,1642399655303323425,,0,0,43.075818876,141.339597306,42.2123794556,0.0,0.0,0.0,0.0,0.0,0.0,0.0,0.0,0.0,0
1642399655595503189,2617,1642399655502519155,,0,0,43.0758188722,141.339597302,42.2130813599,0.0,0.0,0.0,0.0,0.0,0.0,0.0,0.0,0.0,0
1642399655922702249,2618,1642399655902848405,,0,0,43.0758188537,141.339597304,42.2183113098,0.0,0.0,0.0,0.0,0.0,0.0,0.0,0.0,0.0,0
1642399656113753628,2619,1642399656108489131,,0,0,43.075818856,141.339597316,42.2138366699,0.0,0.0,0.0,0.0,0.0,0.0,0.0,0.0,0.0,0
1642399656506958768,2620,1642399656502929073,,0,0,43.0758188586,141.339597289,42.212348938,0.0,0.0,0.0,0.0,0.0,0.0,0.0,0.0,0.0,0
1642399656926049716,2621,1642399656902560648,,0,0,43.0758188467,141.3395973,42.2129707336,0.0,0.0,0.0,0.0,0.0,0.0,0.0,0.0,0.0,0
1642399657310103514,2622,1642399657302050333,,0,0,43.0758188407,141.339597309,42.2186355591,0.0,0.0,0.0,0.0,0.0,0.0,0.0,0.0,0.0,0
1642399657704112058,2623,1642399657702147579,,0,0,43.0758188412,141.339597299,42.2129554749,0.0,0.0,0.0,0.0,0.0,0.0,0.0,0.0,0.0,0
1642399658104744064,2624,1642399658102317051,,0,0,43.0758188444,141.339597309,42.2095870972,0.0,0.0,0.0,0.0,0.0,0.0,0.0,0.0,0.0,0
1642399658513436836,2625,1642399658503265030,,0,0,43.0758188492,141.339597278,42.21434021,0.0,0.0,0.0,0.0,0.0,0.0,0.0,0.0,0.0,0
1642399658729057396,2626,1642399658712920890,,0,0,43.0758188366,141.3395973,42.2195205688,0.0,0.0,0.0,0.0,0.0,0.0,0.0,0.0,0.0,0
1642399658910799544,2627,1642399658905595367,,0,0,43.0758188267,141.3395973,42.2115135193,0.0,0.0,0.0,0.0,0.0,0.0,0.0,0.0,0.0,0
1642399659304686838,2628,1642399659304150893,,0,0,43.0758188218,141.339597309,42.2189254761,0.0,0.0,0.0,0.0,0.0,0.0,0.0,0.0,0.0,0
1642399659707828035,2629,1642399659706377965,,0,0,43.0758187983,141.339597305,42.2227935791,0.0,0.0,0.0,0.0,0.0,0.0,0.0,0.0,0.0,0
1642399660117909180,2630,1642399660102642191,,0,0,43.0758188192,141.339597294,42.2231483459,0.0,0.0,0.0,0.0,0.0,0.0,0.0,0.0,0.0,0
1642399660518297503,2631,1642399660512924716,,0,0,43.0758188739,141.339597269,42.2147483826,0.0,0.0,0.0,0.0,0.0,0.0,0.0,0.0,0.0,0
1642399660917304396,2632,1642399660902188098,,0,0,43.0758188605,141.339597261,42.2171821594,0.0,0.0,0.0,0.0,0.0,0.0,0.0,0.0,0.0,0
1642399661329739786,2633,1642399661303166990,,0,0,43.0758188247,141.339597297,42.2185707092,0.0,0.0,0.0,0.0,0.0,0.0,0.0,0.0,0.0,0
1642399661705300972,2634,1642399661702743876,,0,0,43.0758188464,141.339597306,42.2126655579,0.0,0.0,0.0,0.0,0.0,0.0,0.0,0.0,0.0,0
1642399662189836488,2635,1642399662105176070,,0,0,43.0758188278,141.339597258,42.2160377502,0.0,0.0,0.0,0.0,0.0,0.0,0.0,0.0,0.0,0
1642399662510167057,2636,1642399662503114819,,0,0,43.0758188112,141.339597288,42.2156524658,0.0,0.0,0.0,0.0,0.0,0.0,0.0,0.0,0.0,0
1642399662928154884,2637,1642399662903175713,,0,0,43.0758188788,141.339597317,42.216884613,0.0,0.0,0.0,0.0,0.0,0.0,0.0,0.0,0.0,0
1642399663303550467,2638,1642399663302742903,,0,0,43.0758188714,141.339597318,42.2188644409,0.0,0.0,0.0,0.0,0.0,0.0,0.0,0.0,0.0,0
1642399663703496383,2639,1642399663702925526,,0,0,43.0758188619,141.339597325,42.2200393677,0.0,0.0,0.0,0.0,0.0,0.0,0.0,0.0,0.0,0
1642399663903087575,2640,1642399663902449645,,0,0,43.0758188455,141.339597329,42.2178764343,0.0,0.0,0.0,0.0,0.0,0.0,0.0,0.0,0.0,0
1642399664110200772,2641,1642399664102727536,,0,0,43.0758188755,141.339597317,42.2183876038,0.0,0.0,0.0,0.0,0.0,0.0,0.0,0.0,0.0,0
1642399664503989024,2642,1642399664503192340,,0,0,43.0758188434,141.339597325,42.2132492065,0.0,0.0,0.0,0.0,0.0,0.0,0.0,0.0,0.0,0
1642399664904659688,2643,1642399664903177617,,0,0,43.0758188665,141.339597332,42.2191810608,0.0,0.0,0.0,0.0,0.0,0.0,0.0,0.0,0.0,0
1642399665105726198,2644,1642399665102396387,,0,0,43.0758188563,141.339597333,42.2144203186,0.0,0.0,0.0,0.0,0.0,0.0,0.0,0.0,0.0,0
1642399665326260083,2645,1642399665302922057,,0,0,43.0758188541,141.339597337,42.2217750549,0.0,0.0,0.0,0.0,0.0,0.0,0.0,0.0,0.0,0
1642399666133120823,2646,1642399666110062482,,0,0,43.0758188437,141.339597325,42.2123527527,0.0,0.0,0.0,0.0,0.0,0.0,0.0,0.0,0.0,0
1642399666511369603,2647,1642399666503436040,,0,0,43.075818851,141.339597318,42.2096710205,0.0,0.0,0.0,0.0,0.0,0.0,0.0,0.0,0.0,0
1642399666906472851,2648,1642399666902438869,,0,0,43.0758188244,141.339597315,42.215839386,0.0,0.0,0.0,0.0,0.0,0.0,0.0,0.0,0.0,0
1642399667333831641,2649,1642399667308400622,,0,0,43.0758188537,141.339597288,42.2211723328,0.0,0.0,0.0,0.0,0.0,0.0,0.0,0.0,0.0,0
1642399667510007429,2650,1642399667502676884,,0,0,43.0758188616,141.339597291,42.2139167786,0.0,0.0,0.0,0.0,0.0,0.0,0.0,0.0,0.0,0
1642399667704727570,2651,1642399667703818020,,0,0,43.0758188554,141.339597299,42.2163276672,0.0,0.0,0.0,0.0,0.0,0.0,0.0,0.0,0.0,0
1642399668102780560,2652,1642399668102160551,,0,0,43.075818837,141.339597286,42.2182044983,0.0,0.0,0.0,0.0,0.0,0.0,0.0,0.0,0.0,0
1642399668517577587,2653,1642399668503438455,,0,0,43.0758188511,141.339597292,42.2186889648,0.0,0.0,0.0,0.0,0.0,0.0,0.0,0.0,0.0,0
1642399668711078700,2654,1642399668702322500,,0,0,43.0758188256,141.339597322,42.2218818665,0.0,0.0,0.0,0.0,0.0,0.0,0.0,0.0,0.0,0
1642399668919496013,2655,1642399668908141565,,0,0,43.0758188092,141.339597307,42.2177810669,0.0,0.0,0.0,0.0,0.0,0.0,0.0,0.0,0.0,0
1642399669513766639,2656,1642399669511410219,,0,0,43.0758188395,141.339597291,42.2177658081,0.0,0.0,0.0,0.0,0.0,0.0,0.0,0.0,0.0,0
1642399669709041188,2657,1642399669703054536,,0,0,43.0758188169,141.339597302,42.219783783,0.0,0.0,0.0,0.0,0.0,0.0,0.0,0.0,0.0,0
1642399670113226626,2658,1642399670103168230,,0,0,43.075818811,141.339597304,42.21717453,0.0,0.0,0.0,0.0,0.0,0.0,0.0,0.0,0.0,0
1642399670912618578,2659,1642399670902445844,,0,0,43.0758188019,141.339597326,42.2129745483,0.0,0.0,0.0,0.0,0.0,0.0,0.0,0.0,0.0,0
1642399671303535778,2660,1642399671302859288,,0,0,43.0758187915,141.339597329,42.2076187134,0.0,0.0,0.0,0.0,0.0,0.0,0.0,0.0,0.0,0
1642399671782588713,2661,1642399671705279834,,0,0,43.0758188015,141.339597319,42.2153129578,0.0,0.0,0.0,0.0,0.0,0.0,0.0,0.0,0.0,0
1642399672106279334,2662,1642399672103740255,,0,0,43.0758188829,141.339597308,42.2240905762,0.0,0.0,0.0,0.0,0.0,0.0,0.0,0.0,0.0,0
1642399672512069949,2663,1642399672502343718,,0,0,43.075818855,141.339597308,42.2244911194,0.0,0.0,0.0,0.0,0.0,0.0,0.0,0.0,0.0,0
1642399672908976969,2664,1642399672902449796,,0,0,43.0758188583,141.339597322,42.2285842896,0.0,0.0,0.0,0.0,0.0,0.0,0.0,0.0,0.0,0
1642399673305738740,2665,1642399673302756870,,0,0,43.0758188626,141.339597331,42.2148742676,0.0,0.0,0.0,0.0,0.0,0.0,0.0,0.0,0.0,0
1642399673707482956,2666,1642399673702276475,,0,0,43.0758188481,141.33959735,42.2178115845,0.0,0.0,0.0,0.0,0.0,0.0,0.0,0.0,0.0,0
1642399674109028992,2667,1642399674102966370,,0,0,43.0758188551,141.339597347,42.2228355408,0.0,0.0,0.0,0.0,0.0,0.0,0.0,0.0,0.0,0
1642399674603475126,2668,1642399674502943615,,0,0,43.0758188497,141.339597354,42.2270698547,0.0,0.0,0.0,0.0,0.0,0.0,0.0,0.0,0.0,0
1642399675050604430,2669,1642399674902860922,,0,0,43.0758188537,141.339597322,42.2223854065,0.0,0.0,0.0,0.0,0.0,0.0,0.0,0.0,0.0,0
1642399675329739640,2670,1642399675302852855,,0,0,43.0758188535,141.339597316,42.2198562622,0.0,0.0,0.0,0.0,0.0,0.0,0.0,0.0,0.0,0
1642399675509420955,2671,1642399675504004519,,0,0,43.0758188385,141.339597315,42.2201843262,0.0,0.0,0.0,0.0,0.0,0.0,0.0,0.0,0.0,0
1642399675703185369,2672,1642399675702633936,,0,0,43.0758188802,141.339597343,42.2227325439,0.0,0.0,0.0,0.0,0.0,0.0,0.0,0.0,0.0,0
1642399675903473596,2673,1642399675902933331,,0,0,43.0758188666,141.339597328,42.2139930725,0.0,0.0,0.0,0.0,0.0,0.0,0.0,0.0,0.0,0
1642399676120148893,2674,1642399676106221989,,0,0,43.0758188707,141.339597305,42.2194862366,0.0,0.0,0.0,0.0,0.0,0.0,0.0,0.0,0.0,0
1642399676309088656,2675,1642399676302363655,,0,0,43.0758188392,141.339597324,42.2191085815,0.0,0.0,0.0,0.0,0.0,0.0,0.0,0.0,0.0,0
1642399676576111806,2676,1642399676504191138,,0,0,43.0758188614,141.339597306,42.2175712585,0.0,0.0,0.0,0.0,0.0,0.0,0.0,0.0,0.0,0
1642399676777269582,2677,1642399676712031738,,0,0,43.0758188648,141.339597317,42.2247200012,0.0,0.0,0.0,0.0,0.0,0.0,0.0,0.0,0.0,0
1642399676942894711,2678,1642399676912119706,,0,0,43.0758188522,141.339597313,42.2228126526,0.0,0.0,0.0,0.0,0.0,0.0,0.0,0.0,0.0,0
1642399677106840838,2679,1642399677103368112,,0,0,43.0758188724,141.339597327,42.2236213684,0.0,0.0,0.0,0.0,0.0,0.0,0.0,0.0,0.0,0
1642399677303922391,2680,1642399677302525122,,0,0,43.0758188508,141.339597301,42.2183532715,0.0,0.0,0.0,0.0,0.0,0.0,0.0,0.0,0.0,0
1642399677503848468,2681,1642399677503419374,,0,0,43.0758188431,141.339597292,42.2162208557,0.0,0.0,0.0,0.0,0.0,0.0,0.0,0.0,0.0,0
1642399677706149847,2682,1642399677705352714,,0,0,43.0758188665,141.339597335,42.22082901,0.0,0.0,0.0,0.0,0.0,0.0,0.0,0.0,0.0,0
1642399677913904557,2683,1642399677903078981,,0,0,43.0758188751,141.339597307,42.2179450989,0.0,0.0,0.0,0.0,0.0,0.0,0.0,0.0,0.0,0
1642399678108620602,2684,1642399678102896577,,0,0,43.0758188848,141.339597278,42.2119216919,0.0,0.0,0.0,0.0,0.0,0.0,0.0,0.0,0.0,0
1642399678303234788,2685,1642399678302399767,,0,0,43.0758188819,141.339597291,42.2215118408,0.0,0.0,0.0,0.0,0.0,0.0,0.0,0.0,0.0,0
1642399678510181903,2686,1642399678505539975,,0,0,43.0758188754,141.339597278,42.2136497498,0.0,0.0,0.0,0.0,0.0,0.0,0.0,0.0,0.0,0
1642399678790817264,2687,1642399678706983579,,0,0,43.0758188746,141.339597302,42.2157707214,0.0,0.0,0.0,0.0,0.0,0.0,0.0,0.0,0.0,0
1642399678908668756,2688,1642399678903257984,,0,0,43.0758188832,141.339597289,42.2147598267,0.0,0.0,0.0,0.0,0.0,0.0,0.0,0.0,0.0,0
1642399679115683231,2689,1642399679102484018,,0,0,43.0758188672,141.339597279,42.212097168,0.0,0.0,0.0,0.0,0.0,0.0,0.0,0.0,0.0,0
1642399679303758628,2690,1642399679303062330,,0,0,43.075818854,141.339597291,42.2131767273,0.0,0.0,0.0,0.0,0.0,0.0,0.0,0.0,0.0,0
1642399679543013380,2691,1642399679502650130,,0,0,43.0758188982,141.339597287,42.212890625,0.0,0.0,0.0,0.0,0.0,0.0,0.0,0.0,0.0,0
1642399679731039912,2692,1642399679707734559,,0,0,43.075818886,141.339597286,42.2132644653,0.0,0.0,0.0,0.0,0.0,0.0,0.0,0.0,0.0,0
1642399680113940700,2693,1642399680110050464,,0,0,43.0758188297,141.339597312,42.2131385803,0.0,0.0,0.0,0.0,0.0,0.0,0.0,0.0,0.0,0
1642399680309878363,2694,1642399680303810269,,0,0,43.0758187962,141.339597328,42.2160568237,0.0,0.0,0.0,0.0,0.0,0.0,0.0,0.0,0.0,0
1642399680505437141,2695,1642399680502845517,,0,0,43.0758188183,141.339597312,42.2166519165,0.0,0.0,0.0,0.0,0.0,0.0,0.0,0.0,0.0,0
1642399680824864592,2696,1642399680702913868,,0,0,43.0758188146,141.339597335,42.2137260437,0.0,0.0,0.0,0.0,0.0,0.0,0.0,0.0,0.0,0
1642399681119399016,2697,1642399680903091181,,0,0,43.0758188227,141.339597322,42.2210998535,0.0,0.0,0.0,0.0,0.0,0.0,0.0,0.0,0.0,0
1642399681269108891,2698,1642399681104186108,,0,0,43.0758188216,141.339597315,42.2174224854,0.0,0.0,0.0,0.0,0.0,0.0,0.0,0.0,0.0,0
1642399681599017144,2699,1642399681302866438,,0,0,43.0758188302,141.339597333,42.2133369446,0.0,0.0,0.0,0.0,0.0,0.0,0.0,0.0,0.0,0
1642399681774182869,2700,1642399681503968470,,0,0,43.0758188099,141.339597332,42.2203063965,0.0,0.0,0.0,0.0,0.0,0.0,0.0,0.0,0.0,0
1642399681864701713,2701,1642399681702984549,,0,0,43.0758188238,141.33959734,42.2218933105,0.0,0.0,0.0,0.0,0.0,0.0,0.0,0.0,0.0,0
1642399682231618861,2702,1642399681902406202,,0,0,43.0758188081,141.339597336,42.2178421021,0.0,0.0,0.0,0.0,0.0,0.0,0.0,0.0,0.0,0
1642399682343612054,2703,1642399682102708253,,0,0,43.0758187941,141.339597347,42.2169570923,0.0,0.0,0.0,0.0,0.0,0.0,0.0,0.0,0.0,0
1642399682524389706,2704,1642399682311350754,,0,0,43.0758188407,141.339597322,42.2192993164,0.0,0.0,0.0,0.0,0.0,0.0,0.0,0.0,0.0,0
1642399682611836087,2705,1642399682503264035,,0,0,43.0758188129,141.339597336,42.2156600952,0.0,0.0,0.0,0.0,0.0,0.0,0.0,0.0,0.0,0
1642399682793370615,2706,1642399682703358275,,0,0,43.0758188122,141.339597351,42.2257003784,0.0,0.0,0.0,0.0,0.0,0.0,0.0,0.0,0.0,0
1642399683103381856,2707,1642399683102858520,,0,0,43.0758188332,141.339597298,42.2192459106,0.0,0.0,0.0,0.0,0.0,0.0,0.0,0.0,0.0,0
1642399683302942103,2708,1642399683302526033,,0,0,43.0758188234,141.339597323,42.228931427,0.0,0.0,0.0,0.0,0.0,0.0,0.0,0.0,0.0,0
1642399683506316298,2709,1642399683503078104,,0,0,43.0758188355,141.339597295,42.2221488953,0.0,0.0,0.0,0.0,0.0,0.0,0.0,0.0,0.0,0
1642399683703855650,2710,1642399683703005205,,0,0,43.0758188229,141.339597306,42.2286643982,0.0,0.0,0.0,0.0,0.0,0.0,0.0,0.0,0.0,0
1642399683905054163,2711,1642399683903189782,,0,0,43.07581883,141.339597304,42.2288665771,0.0,0.0,0.0,0.0,0.0,0.0,0.0,0.0,0.0,0
1642399684126601024,2712,1642399684104670508,,0,0,43.0758188896,141.339597312,42.2116966248,0.0,0.0,0.0,0.0,0.0,0.0,0.0,0.0,0.0,0
1642399684309077006,2713,1642399684305858140,,0,0,43.0758188859,141.339597314,42.2104301453,0.0,0.0,0.0,0.0,0.0,0.0,0.0,0.0,0.0,0
1642399684504296386,2714,1642399684503443189,,0,0,43.0758188936,141.339597307,42.2157363892,0.0,0.0,0.0,0.0,0.0,0.0,0.0,0.0,0.0,0
1642399684708492802,2715,1642399684704436515,,0,0,43.0758188648,141.339597324,42.2091827393,0.0,0.0,0.0,0.0,0.0,0.0,0.0,0.0,0.0,0
1642399684903165742,2716,1642399684902416130,,0,0,43.0758188645,141.339597311,42.2121238708,0.0,0.0,0.0,0.0,0.0,0.0,0.0,0.0,0.0,0
1642399685104994312,2717,1642399685103344527,,0,0,43.0758188554,141.339597297,42.2205696106,0.0,0.0,0.0,0.0,0.0,0.0,0.0,0.0,0.0,0
1642399685374359739,2718,1642399685302559969,,0,0,43.0758188375,141.339597326,42.2126579285,0.0,0.0,0.0,0.0,0.0,0.0,0.0,0.0,0.0,0
1642399685625486194,2719,1642399685505186376,,0,0,43.0758188409,141.339597297,42.2203483582,0.0,0.0,0.0,0.0,0.0,0.0,0.0,0.0,0.0,0
1642399685790644148,2720,1642399685702951364,,0,0,43.075818847,141.339597305,42.2148628235,0.0,0.0,0.0,0.0,0.0,0.0,0.0,0.0,0.0,0
1642399686021539442,2721,1642399685902505595,,0,0,43.075818866,141.339597303,42.218170166,0.0,0.0,0.0,0.0,0.0,0.0,0.0,0.0,0.0,0
1642399686108909405,2722,1642399686102680732,,0,0,43.075818844,141.33959729,42.2177658081,0.0,0.0,0.0,0.0,0.0,0.0,0.0,0.0,0.0,0
1642399686312163758,2723,1642399686303740139,,0,0,43.0758188701,141.339597307,42.2258300781,0.0,0.0,0.0,0.0,0.0,0.0,0.0,0.0,0.0,0
1642399686513551778,2724,1642399686506407155,,0,0,43.0758188546,141.3395973,42.2213363647,0.0,0.0,0.0,0.0,0.0,0.0,0.0,0.0,0.0,0
1642399686705068413,2725,1642399686702685528,,0,0,43.0758188649,141.339597302,42.2192878723,0.0,0.0,0.0,0.0,0.0,0.0,0.0,0.0,0.0,0
1642399686904237070,2726,1642399686903510467,,0,0,43.0758188351,141.339597307,42.2125663757,0.0,0.0,0.0,0.0,0.0,0.0,0.0,0.0,0.0,0
1642399687106612593,2727,1642399687104474704,,0,0,43.075818847,141.339597289,42.2122039795,0.0,0.0,0.0,0.0,0.0,0.0,0.0,0.0,0.0,0
1642399687315263542,2728,1642399687303121849,,0,0,43.075818842,141.339597316,42.2113265991,0.0,0.0,0.0,0.0,0.0,0.0,0.0,0.0,0.0,0
1642399687505477340,2729,1642399687503645184,,0,0,43.0758188522,141.339597288,42.209728241,0.0,0.0,0.0,0.0,0.0,0.0,0.0,0.0,0.0,0
1642399687765022870,2730,1642399687704389098,,0,0,43.0758188434,141.33959732,42.2117576599,0.0,0.0,0.0,0.0,0.0,0.0,0.0,0.0,0.0,0
1642399687912732650,2731,1642399687903028339,,0,0,43.0758188606,141.33959732,42.2124900818,0.0,0.0,0.0,0.0,0.0,0.0,0.0,0.0,0.0,0
1642399688106164290,2732,1642399688102953968,,0,0,43.0758188561,141.339597296,42.2172012329,0.0,0.0,0.0,0.0,0.0,0.0,0.0,0.0,0.0,0
1642399688318664994,2733,1642399688303042608,,0,0,43.0758188678,141.339597308,42.2075309753,0.0,0.0,0.0,0.0,0.0,0.0,0.0,0.0,0.0,0
1642399688503788858,2734,1642399688503030926,,0,0,43.0758188699,141.33959729,42.2081565857,0.0,0.0,0.0,0.0,0.0,0.0,0.0,0.0,0.0,0
1642399688705237103,2735,1642399688703128430,,0,0,43.0758188551,141.33959729,42.2143058777,0.0,0.0,0.0,0.0,0.0,0.0,0.0,0.0,0.0,0
1642399688906379327,2736,1642399688904606531,,0,0,43.0758188574,141.339597293,42.2111930847,0.0,0.0,0.0,0.0,0.0,0.0,0.0,0.0,0.0,0
1642399689139101945,2737,1642399689103296558,,0,0,43.075818846,141.339597289,42.2121696472,0.0,0.0,0.0,0.0,0.0,0.0,0.0,0.0,0.0,0
1642399689329294111,2738,1642399689303269355,,0,0,43.0758188338,141.339597285,42.213470459,0.0,0.0,0.0,0.0,0.0,0.0,0.0,0.0,0.0,0
1642399689567720658,2739,1642399689503261898,,0,0,43.075818838,141.339597283,42.2147979736,0.0,0.0,0.0,0.0,0.0,0.0,0.0,0.0,0.0,0
1642399689703582413,2740,1642399689702911331,,0,0,43.0758188392,141.339597289,42.2122192383,0.0,0.0,0.0,0.0,0.0,0.0,0.0,0.0,0.0,0
1642399689928604976,2741,1642399689902947522,,0,0,43.0758188911,141.339597264,42.2168502808,0.0,0.0,0.0,0.0,0.0,0.0,0.0,0.0,0.0,0
1642399690105584777,2742,1642399690102798174,,0,0,43.0758189003,141.339597246,42.2086868286,0.0,0.0,0.0,0.0,0.0,0.0,0.0,0.0,0.0,0
1642399690364760317,2743,1642399690304308467,,0,0,43.0758189016,141.339597272,42.215965271,0.0,0.0,0.0,0.0,0.0,0.0,0.0,0.0,0.0,0
1642399690525396857,2744,1642399690502900828,,0,0,43.0758188926,141.339597243,42.2146339417,0.0,0.0,0.0,0.0,0.0,0.0,0.0,0.0,0.0,0
1642399690709790885,2745,1642399690702873178,,0,0,43.0758189164,141.339597266,42.2124824524,0.0,0.0,0.0,0.0,0.0,0.0,0.0,0.0,0.0,0
1642399690922282437,2746,1642399690902598356,,0,0,43.0758188858,141.339597262,42.2164649963,0.0,0.0,0.0,0.0,0.0,0.0,0.0,0.0,0.0,0
1642399691109953221,2747,1642399691108215658,,0,0,43.0758188758,141.339597253,42.2127952576,0.0,0.0,0.0,0.0,0.0,0.0,0.0,0.0,0.0,0
1642399691313712125,2748,1642399691312114820,,0,0,43.0758188764,141.339597262,42.2085533142,0.0,0.0,0.0,0.0,0.0,0.0,0.0,0.0,0.0,0
1642399691509168853,2749,1642399691504851282,,0,0,43.0758188669,141.339597254,42.2167053223,0.0,0.0,0.0,0.0,0.0,0.0,0.0,0.0,0.0,0
1642399691704009251,2750,1642399691703530908,,0,0,43.0758188635,141.339597263,42.2138175964,0.0,0.0,0.0,0.0,0.0,0.0,0.0,0.0,0.0,0
1642399691910957838,2751,1642399691903249590,,0,0,43.0758188681,141.339597256,42.2175445557,0.0,0.0,0.0,0.0,0.0,0.0,0.0,0.0,0.0,0
1642399692103905919,2752,1642399692102905071,,0,0,43.0758188603,141.339597294,42.2213859558,0.0,0.0,0.0,0.0,0.0,0.0,0.0,0.0,0.0,0
1642399692303998750,2753,1642399692303030895,,0,0,43.0758188576,141.339597302,42.2269592285,0.0,0.0,0.0,0.0,0.0,0.0,0.0,0.0,0.0,0
1642399692506975275,2754,1642399692503283442,,0,0,43.0758188696,141.33959728,42.222038269,0.0,0.0,0.0,0.0,0.0,0.0,0.0,0.0,0.0,0
1642399692708922632,2755,1642399692703348081,,0,0,43.0758188415,141.339597288,42.2246322632,0.0,0.0,0.0,0.0,0.0,0.0,0.0,0.0,0.0,0
1642399692910172025,2756,1642399692903566323,,0,0,43.0758188579,141.339597289,42.2287750244,0.0,0.0,0.0,0.0,0.0,0.0,0.0,0.0,0.0,0
1642399693103838965,2757,1642399693103194635,,0,0,43.0758188674,141.339597285,42.2233009338,0.0,0.0,0.0,0.0,0.0,0.0,0.0,0.0,0.0,0
1642399693315608010,2758,1642399693305757298,,0,0,43.0758188715,141.339597278,42.2220840454,0.0,0.0,0.0,0.0,0.0,0.0,0.0,0.0,0.0,0
1642399693503983028,2759,1642399693503518413,,0,0,43.07581886,141.339597271,42.2248268127,0.0,0.0,0.0,0.0,0.0,0.0,0.0,0.0,0.0,0
1642399693708390231,2760,1642399693702838241,,0,0,43.0758188485,141.339597286,42.2247772217,0.0,0.0,0.0,0.0,0.0,0.0,0.0,0.0,0.0,0
1642399694106444950,2761,1642399694105468487,,0,0,43.0758188723,141.339597274,42.2204284668,0.0,0.0,0.0,0.0,0.0,0.0,0.0,0.0,0.0,0
1642399694505188639,2762,1642399694502945916,,0,0,43.0758188659,141.339597263,42.2200508118,0.0,0.0,0.0,0.0,0.0,0.0,0.0,0.0,0.0,0
1642399694724341190,2763,1642399694711330205,,0,0,43.0758188517,141.339597287,42.2223167419,0.0,0.0,0.0,0.0,0.0,0.0,0.0,0.0,0.0,0
1642399694904152812,2764,1642399694903434849,,0,0,43.0758188438,141.339597317,42.2288322449,0.0,0.0,0.0,0.0,0.0,0.0,0.0,0.0,0.0,0
1642399695711324692,2765,1642399695703172982,,0,0,43.0758188339,141.33959733,42.2270507812,0.0,0.0,0.0,0.0,0.0,0.0,0.0,0.0,0.0,0
1642399695947373570,2766,1642399695903523802,,0,0,43.0758187994,141.339597326,42.2246055603,0.0,0.0,0.0,0.0,0.0,0.0,0.0,0.0,0.0,0
1642399696117505457,2767,1642399696103855613,,0,0,43.0758188274,141.339597321,42.2268104553,0.0,0.0,0.0,0.0,0.0,0.0,0.0,0.0,0.0,0
1642399696504269248,2768,1642399696503620374,,0,0,43.0758187951,141.33959732,42.2306213379,0.0,0.0,0.0,0.0,0.0,0.0,0.0,0.0,0.0,0
1642399696948394986,2769,1642399696902915016,,0,0,43.0758188371,141.339597306,42.2256736755,0.0,0.0,0.0,0.0,0.0,0.0,0.0,0.0,0.0,0
1642399697106258042,2770,1642399697102942695,,0,0,43.075818813,141.339597303,42.2209472656,0.0,0.0,0.0,0.0,0.0,0.0,0.0,0.0,0.0,0
1642399697324834841,2771,1642399697306567678,,0,0,43.0758188183,141.339597316,42.2245063782,0.0,0.0,0.0,0.0,0.0,0.0,0.0,0.0,0.0,0
1642399698113101180,2772,1642399698103964047,,0,0,43.0758188122,141.339597309,42.2298851013,0.0,0.0,0.0,0.0,0.0,0.0,0.0,0.0,0.0,0
1642399698530893293,2773,1642399698503051485,,0,0,43.0758187898,141.339597327,42.2279396057,0.0,0.0,0.0,0.0,0.0,0.0,0.0,0.0,0.0,0
1642399698947020356,2774,1642399698910211049,,0,0,43.0758188231,141.339597308,42.2246055603,0.0,0.0,0.0,0.0,0.0,0.0,0.0,0.0,0.0,0
1642399699304473709,2775,1642399699303515422,,0,0,43.0758189084,141.339597293,42.2145996094,0.0,0.0,0.0,0.0,0.0,0.0,0.0,0.0,0.0,0
1642399699504302825,2776,1642399699503716671,,0,0,43.0758188837,141.339597294,42.2144203186,0.0,0.0,0.0,0.0,0.0,0.0,0.0,0.0,0.0,0
1642399699715695640,2777,1642399699713484693,,0,0,43.0758189015,141.339597307,42.2178268433,0.0,0.0,0.0,0.0,0.0,0.0,0.0,0.0,0.0,0
1642399700177661782,2778,1642399700102864877,,0,0,43.0758189128,141.339597297,42.2143287659,0.0,0.0,0.0,0.0,0.0,0.0,0.0,0.0,0.0,0
1642399700513304332,2779,1642399700502693991,,0,0,43.075818725,141.33959731,42.2249603271,0.0,0.0,0.0,0.0,0.0,0.0,0.0,0.0,0.0,0
1642399700722032274,2780,1642399700711830580,,0,0,43.0758187537,141.339597293,42.2235908508,0.0,0.0,0.0,0.0,0.0,0.0,0.0,0.0,0.0,0
1642399700925383972,2781,1642399700903380975,,0,0,43.0758188347,141.339597312,42.2171707153,0.0,0.0,0.0,0.0,0.0,0.0,0.0,0.0,0.0,0
1642399701307109989,2782,1642399701304158040,,0,0,43.0758188454,141.339597297,42.2175140381,0.0,0.0,0.0,0.0,0.0,0.0,0.0,0.0,0.0,0
1642399701716623254,2783,1642399701715768008,,0,0,43.0758188535,141.339597296,42.2186279297,0.0,0.0,0.0,0.0,0.0,0.0,0.0,0.0,0.0,0
1642399702119559520,2784,1642399702102882205,,0,0,43.0758188437,141.3395973,42.2152099609,0.0,0.0,0.0,0.0,0.0,0.0,0.0,0.0,0.0,0
1642399702593251636,2785,1642399702505578788,,0,0,43.0758188494,141.339597295,42.2124061584,0.0,0.0,0.0,0.0,0.0,0.0,0.0,0.0,0.0,0
1642399702953596810,2786,1642399702903537537,,0,0,43.0758188569,141.339597333,42.2211952209,0.0,0.0,0.0,0.0,0.0,0.0,0.0,0.0,0.0,0
1642399703394833702,2787,1642399703303037814,,0,0,43.0758188788,141.339597327,42.2216377258,0.0,0.0,0.0,0.0,0.0,0.0,0.0,0.0,0.0,0
1642399703875760586,2788,1642399703703179829,,0,0,43.0758188889,141.339597331,42.2147750854,0.0,0.0,0.0,0.0,0.0,0.0,0.0,0.0,0.0,0
1642399704103520215,2789,1642399704102837964,,0,0,43.0758188475,141.339597317,42.2208213806,0.0,0.0,0.0,0.0,0.0,0.0,0.0,0.0,0.0,0
1642399704545374941,2790,1642399704502993068,,0,0,43.0758188555,141.339597293,42.2154541016,0.0,0.0,0.0,0.0,0.0,0.0,0.0,0.0,0.0,0
1642399704918384087,2791,1642399704903003816,,0,0,43.0758188493,141.339597295,42.2194442749,0.0,0.0,0.0,0.0,0.0,0.0,0.0,0.0,0.0,0
1642399705303639279,2792,1642399705302774850,,0,0,43.0758188532,141.339597292,42.2317619324,0.0,0.0,0.0,0.0,0.0,0.0,0.0,0.0,0.0,0
1642399705715660230,2793,1642399705703418472,,0,0,43.0758188723,141.339597303,42.2251358032,0.0,0.0,0.0,0.0,0.0,0.0,0.0,0.0,0.0,0
1642399706104324339,2794,1642399706103716394,,0,0,43.0758188615,141.339597273,42.2109642029,0.0,0.0,0.0,0.0,0.0,0.0,0.0,0.0,0.0,0
1642399706504005227,2795,1642399706503301216,,0,0,43.0758188417,141.339597252,42.2120094299,0.0,0.0,0.0,0.0,0.0,0.0,0.0,0.0,0.0,0
1642399706915948481,2796,1642399706909432732,,0,0,43.0758188431,141.339597282,42.2095680237,0.0,0.0,0.0,0.0,0.0,0.0,0.0,0.0,0.0,0
1642399707107767520,2797,1642399707105437916,,0,0,43.075818846,141.339597296,42.2185440063,0.0,0.0,0.0,0.0,0.0,0.0,0.0,0.0,0.0,0
1642399707303926595,2798,1642399707303191448,,0,0,43.075818806,141.339597283,42.2242279053,0.0,0.0,0.0,0.0,0.0,0.0,0.0,0.0,0.0,0
